{ "map":{ "center":{ "lat":35.400673, "lng":139.533848 }, "zoomlevel":16 },
  "lists":[
          { "title":"東戸塚駅",
            "name":"東戸塚駅",
           "position":{ "lat":35.430443, "lng":139.556750},
            "status":"unchecked",
            "image":"res/higashitotsuka.jpg",
            "description":"明治の中頃から百年近くにも及ぶ住民の願いが叶えられ、昭和５５年（1980年）に開業した。(文:戸塚見知楽会）",
            "howtogetthere":""
          },
          { "title":"熊野神社",
            "name":"熊野神社",
           "position":{ "lat":35.432830, "lng":139.550898},
            "status":"unchecked",
            "image":"res/kumano_kawakami.jpg",
            "description":"後山田村（現在の川上町）の鎮守。祭神は伊邪那岐命（いざなぎのみこと）、伊邪那美（いざなみのみこと）。天長６年（829）の創建と伝えられる。もと「熊野の杜」と呼ばれる村中で最高の山の中腹に鎮座していたが、明治時代の東海道線の複線化に伴い、境内が敷設地となったため、現在の地へ遷座した。平成７年に鉄筋コンクリート造で復旧した。境内には近くあった庚申塔や地神塔などの石造物がまとめられている。(文:戸塚見知楽会）",
            "howtogetthere":""
          },
          { "title":"北天院",
            "name":"北天院",
           "position":{ "lat":35.435365, "lng":139.557773},
            "status":"unchecked",
            "image":"res/hokutenin.jpg",
            "description":"臨済宗円覚寺派。品濃山と号する。創建年代は不明だが、無学祖元（仏光国師）を勧請開山としており、「無学祖元草鞋脱ぎの道場」といわれている。無学祖元は弘安２年（1279）に時の執権北条時宗の招きで宋から渡来し、円覚寺を開いた名僧である。本堂への108段の石段（お数珠坂）には石仏がある。本尊は釈迦牟尼仏で弘安６年（1777）大仏師源光作。現在の本堂は昭和５５年東海道線貨物線の増線工事のため、現在の山の中腹へ移った。(文:戸塚見知楽会)",
           "howtogetthere":""
          },
          { "title":"新見家の墓",
           "name":"新見家の墓",
           "position":{ "lat":35.433999, "lng":139.562729},
            "status":"unchecked",
            "image":"res/shinmike.jpg",
            "description":"マンションが立ち並ぶ一角の共同墓地に、江戸時代の品濃の領主であった旗本新見家の墓所があり、２台目の正勝と８代目の正路の供養墓がある。(文:戸塚見知楽会)",
            "howtogetthere":""
          },
          { "title":"境木立場・境木地蔵",
           "name":"境木立場・境木地蔵",
           "position":{ "lat":35.436834, "lng":139.566862},
            "status":"unchecked",
            "image":"res/sakaigi.jpg",
            "description":"武蔵国と相模国の国境を示す榜示杭（ぼうじぐい）が建っていたことから境木立場と呼ばれた。現在は復元された榜示杭が建っている。傍らの堂の中に万治２年（1659）の石の地蔵があり、境木地蔵と呼ばれている。この地蔵は言い伝えによれば、鎌倉の海で引き揚げられ、村人の夢枕にたって江戸に行きたいと言ったという。村人が車に乗せて運んだがここまで来て動かなくなった。仕方なく置いて帰ったが、この地の村人の夢に現れ、せめて雨露を凌ぐものをつくってくれといったので、堂を作って安置したところ村が栄えたという。(文:戸塚見知楽会)",
            "howtogetthere":""
          },
          { "title":"萩原代官屋敷、道場跡",
           "name":"萩原代官屋敷、道場跡",
           "position":{ "lat":35.435540, "lng":139.567651},
            "status":"unchecked",
            "image":"res/hagiwara_daikan.jpg",
            "description":"平戸の領主杉浦氏の代官職萩原氏の屋敷の後。幕末から明治の始めにかけての当主萩原行篤は、直心影流（じきしんかげりゅう）の免許皆伝の剣士で、ここに剣道道場を開き多くの弟子がいた。安政５年（1858）には新撰組の近藤勇もこの道場を訪ねており、剣客名簿にその名が記されている。(文:戸塚見知楽会)",
            "howtogetthere":""
          },
          { "title":"焼餅坂（牡丹餅坂）",
           "name":"焼餅坂（牡丹餅坂）",
           "position":{ "lat":35.435909, "lng":139.566492},
            "status":"unchecked",
            "image":"res/yakimochizaka.jpg",
            "description":"昭和60年頃までは両側が木立に覆われた薄暗い坂道であった。近くの境木立場に焼餅を売る茶屋があったことから、焼餅坂と名付けられたという。(文:戸塚見知楽会)",
            "howtogetthere":""
           },
          { "title":"品濃一里塚",
           "name":"品濃一里塚",
            "position":{ "lat":35.432563, "lng":139.564371},
            "status":"unchecked",
            "image":"res/shinano_ichirizuka.jpg",
            "description":"江戸時代の面影をよく残している数少ない一里塚として貴重なもので、昭和40年に神奈川県の史跡に指定され保護されている。日本橋から数えて9番目の一里塚である。(文:戸塚見知楽会)",
            "howtogetthere":""
          },
           { "title":"品濃坂",
           "name":"品濃坂",
           "position":{ "lat":35.427618, "lng":139.562060},
           "status":"unchecked",
           "image":"res/shinanozaka.jpg",
           "description":"謡曲「鉢木」を題材にした江戸時代の川柳「佐野の馬戸塚の坂で二度転び」に詠まれたのがこの坂であったという。水平距離200mのところを、30〜40m一気に下る（上る）厳しい坂である。現在は環状二号線で分断されてしまった。(文:戸塚見知楽会)",
           "howtogetthere":""
           },
           { "title":"白旗神社",
           "name":"白旗神社",
           "position":{ "lat":35.420991, "lng":139.561795},
           "status":"unchecked",
           "image":"res/shirahata_hirado.jpg",
           "description":"平戸の鎮守。祭神は源頼朝命。乾元元年（1302）に勧請されたといわれている。源頼朝の遺髪三筋が神体とされている。(文:戸塚見知楽会)",
           "howtogetthere":""
           },
           { "title":"東福寺",
           "name":"東福寺",
           "position":{ "lat":35.421148, "lng":139.562622},
           "status":"unchecked",
           "image":"res/toufukuji.jpg",
           "description":"臨済宗円覚寺派。永谷山と号する。本尊は釈迦如来で、行基作と伝えられている。乾元元年（1302）僧養谷の開山、開基と伝えられている。入口付近に「従是弘明寺観音」（これよりぐみょうじかんのん）の半ば埋まった道標がある。昭和36年（1961）に近くで発掘された多くの人馬の骨を引き取って埋葬し、「無量光彿碑」が建てられている。(文:戸塚見知楽会)",
           "howtogetthere":""
           },
           { "title":"光安寺",
           "name":"光安寺",
           "position":{ "lat":35.420313, "lng":139.563711},
           "status":"unchecked",
           "image":"res/kouanji.jpg",
           "description":"浄土宗。天龍山宗林院光安寺と号する。天正18年（1590）の創建で、真阿存公が開山。東海道筋の念仏道場として、地域の人々と共に歩んできた寺である。光照院、植松寺、地蔵院（有華寺）という廃寺となった寺を合併して、現在の光安寺となった。境内の閻魔堂には、光照院にあった閻魔王などの十王が移されている。また植松寺の観音堂にあった、北条政子の守り本尊と伝えられる身の丈１寸８分（5.5cm）の観音菩薩像も本堂に安置されている。墓地にある二十三夜塔〔寛文10年（1670）〕は勢至菩薩像塔で、市内で最も古いといわれている。(文:戸塚見知楽会)",
           "howtogetthere":""
           },
	   { "title":"日枝神社",
            "name":"日枝神社",
           "position":{ "lat":35.423391, "lng":139.553506},
            "status":"unchecked",
            "image":"res/hie_yamada.jpg",
            "description":"前山田村（現在の前田町）の鎮守。祭神は大山咋神（おおやまくいのかみ）。由緒書によれば約850年前から村の守神として祀られていたという。現在の社殿は平成4年（1992）に改築されたものである。大山咋神は仏教風に山王権現と呼ばれることがあり、この神社の境内には３基の山王碑がある。(文:戸塚見知楽会)",
            "howtogetthere":""
          },
          { "title":"蓮久寺",
            "name":"蓮久寺",
           "position":{ "lat":35.423954, "lng":139.551833},
            "status":"unchecked",
            "image":"res/renkyuuji.jpg",
            "description":"日蓮宗。本能山と号し、本尊として曼荼羅を安置している。創立に関しては２説あり、寺伝では最上院日宗〔永仁３年（1295）寂〕の草創としているが、「新編相模国風土記稿」には開山日厳〔慶長10年（1605）２月10日寂〕とある。境内には寺子屋を開いた日誠〔文政12年（1829）〕と日熙〔明治4年（1871）〕の筆子塚がある。(文:戸塚見知楽会)",
            "howtogetthere":""
          },
          { "title":"長蔵寺",
            "name":"長蔵寺",
           "position":{ "lat":35.419684, "lng":139.545706},
            "status":"unchecked",
            "image":"res/cyouzouji.jpg",
            "description":"真言宗。八正山と号する。本尊は阿弥陀如来。天文3年（1534）法印愛賢の開山と言われている。境内には時の首相吉田茂（号は青涯）が揮毫した治水之碑（昭和29年5月）がある。また寺子屋師匠成弁〔貞享3年（1686）〕と真長〔宝暦3年（1753）〕の筆子塚がある。(文:戸塚見知楽会)",
            "howtogetthere":""
          },
          { "title":"増威八幡社",
           "name":"増威八幡社",
           "position":{ "lat":35.419896, "lng":139.545269},
            "status":"unchecked",
            "image":"res/masuihachiman.jpg",
            "description":"祭神は品陀別命（ほんだわけのみこと＝応仁天皇）。創建は天平元年（729）と言われている。平安時代に源義家（八幡太郎）が東征の折ここに立ち寄り、神主に地名を聞いたところ、聞かれた者は自分の名を聞かれたと勘違いし、増井（ますい）と答えた。義家は我が威が増すとは幸先が良いと喜び、それから増威社になったと言われている。またある夜海中に光るものがあり、旅の僧が取り上げてみると、中に像と宝物の入った祠であったので、この社に納めたが、あいにく供え物にする米がなく、代わりに小麦を蒸して供えたという伝説があり、別名小麦八幡とも呼ばれている。石段の横に庚申塔２基〔明和5年（1768）、文化元年（1804）〕、道禄神碑〔寛延2年（1749）〕がある。(文:戸塚見知楽会)",
            "howtogetthere":""
          },
          { "title":"双体道祖神",
           "name":"双体道祖神",
           "position":{ "lat":35.422100, "lng":139.539586},
            "status":"unchecked",
            "image":"res/soutaidousojin.jpg",
            "description":"名瀬町歌舞伎にあり、寛政6年（1794）建立された。石造りの龕の中に納められた男女両神が程よく寄り添った立像である。横浜新道の建設に伴いこの地に移されたという。(文:戸塚見知楽会)",
            "howtogetthere":""
          },
         { "title":"松尾神社",
           "name":"松尾神社",
           "position":{ "lat":35.422283, "lng":139.536281},
            "status":"unchecked",
            "image":"res/matsuo.jpg",
             "description":"祭神は大山咋神（おおやまくいのかみ）。文暦元年（1234）の創建で、地元では「田中の明神」と呼んでいる。大山詣の道筋に近いので、江戸時代には参詣人達で賑わったといわれている。(文:戸塚見知楽会)",
            "howtogetthere":""
           },
          { "title":"東野台古墳",
           "name":"東野台古墳",
            "position":{ "lat":35.424529, "lng":139.537982},
            "status":"unchecked",
            "image":"res/higashinodai_kofun.jpg",
            "description":"昭和49年（1974）、同58年（1983）に発掘調査が行われ、３基の古墳と竪穴住居跡が見つかった。古墳の形を残し説明板が設置された。一番大きい２号ふんは長さ54mの前方後円墳で、鉄剣、勾玉、管玉などの副葬品が見つかった。３基の古墳は4世紀ころ造られたと推定され、柏尾川の流域では最も古い段階の古墳と考えられている。(文:戸塚見知楽会)",
            "howtogetthere":""
          },
           { "title":"妙法寺",
           "name":"妙法寺",
           "position":{ "lat":35.429635, "lng":139.540126},
           "status":"unchecked",
           "image":"res/myouhouji.jpg",
           "description":"日蓮宗。経王山と号する。本尊として大曼荼羅を安置している。創建は徳治元年（1306）で、この地を支配していた越後の豪族風間信昭が、日昭（日蓮の直弟子で日蓮から後事を託された六老僧の筆頭）を招いて開山した。昔は七つの堂を有する大きな寺であった。元禄年間（1688〜1704）に火事に見舞われたため、本堂を鎌倉から移したという。平成12年（2000）に大改修が行われた。(文:戸塚見知楽会)",
           "howtogetthere":""
           },
           { "title":"白神社",
           "name":"白神社",
           "position":{ "lat":35.431875, "lng":139.535357},
           "status":"unchecked",
           "image":"res/shiro.jpg",
           "description":"祭神は闇淤加美神（くらおかみのかみ）。正暦年間（990〜995）に安和の変で敗れた近藤秀延が東国に逃れる途中秋葉神社に詣で、その神濃告に従ってここに来て、安住の地を得たことに感謝し神社を建てたのが、この神社の創建といわれている。また別の説では、名瀬の松窪に大きな白蛇がおり、付近の農地を荒らしたので、住民は闇淤加美が白蛇となって村人を戒めたと思い、白神社を創建したという。寛政9年（1797）に社の再建があり、明治45年（1912）、昭和56年（1981）に改修が行われている。(文:戸塚見知楽会)",
           "howtogetthere":""
           },
           { "title":"西蓮寺",
           "name":"西蓮寺",
           "position":{ "lat":35.437384, "lng":139.531828},
           "status":"unchecked",
           "image":"res/sairenji.jpg",
           "description":"浄土宗。中谷山と号する。本尊は阿弥陀如来。創建は寺伝では正暦元年（990）としていて、相当古いようであるが、過去帳には寛永5年（1648）寺領6石4斗の朱印を賜ったという。柏尾の領主であった植村了右衛門正和の墓がある。(文:戸塚見知楽会)",
           "howtogetthere":""
           },
           { "title":"善了寺",
           "name":"善了寺",
           "position":{ "lat":35.404025, "lng":139.536570},
           "status":"unchecked",
           "image":"res/zenryouji.jpg",
           "description":"浄土真宗本願寺派。本尊の阿弥陀如来は蓮如の作と伝えられている。古くは和泉村にあった。武田信玄の家臣大久保信唯が本願寺十一世顕如に逢って弟子になり、名を釈了唯と改め、寺をこの地に移し再興したと伝えられている。寺の横の高台には明治6年（1873）明允（めいいん）学校が建てられ、近代教育のはしりとなった。学校の場所は、戸塚宿に３ヶ所あった問屋場のうち矢部町問屋場があったところである。また、政治結社の友文会が置かれ、明治10年代には自由民権の演説会が盛んに行われたという。(文:戸塚見知楽会)",
           "howtogetthere":""
           },
           { "title":"大橋",
           "name":"大橋",
           "position":{ "lat":35.405732, "lng":139.536960},
           "status":"unchecked",
           "image":"res/oohashi.jpg",
           "description":"戸塚駅や戸塚図書館に大きく掲げられている広重の「東海道五捨三次之内　戸塚」（保永堂版）に画かれている橋である。信号の上には「吉田大橋」とあるが、橋の名称は単に「大橋」である。江戸時代の橋は長さ10間（約18m）、幅2間半（約4.5m）ほどで、現在の1/3くらいの大きさであった。現在の橋は昭和61年（1986）に改造されたもので、街灯は大名行列が持っているケヤリを模している。傍（矢部町側）に淡島大明神碑には「ほしのや道、八王子道」と刻まれ道標を兼ねている。(文:戸塚見知楽会)",
           "howtogetthere":""
           },
           { "title":"元町一里塚跡",
           "name":"元町一里塚跡",
           "position":{ "lat":35.406458, "lng":139.537819},
           "status":"unchecked",
           "image":"res/motomachi_ichirizuka.jpg",
           "description":"戸塚区には品濃・平戸、吉田（元町）、原宿（吹上）に東海道の一里塚があった。元町の一里塚は江戸から10番目に当たる。(文:戸塚見知楽会)",
           "howtogetthere":""
           },
           { "title":"妙秀寺",
           "name":"妙秀寺",
           "position":{ "lat":35.406068, "lng":139.539409},
           "status":"unchecked",
           "image":"res/myousyuuji.jpg",
           "description":"日蓮宗。見立山と号する。創建は延文年間（1356〜61）といわれているが、開基、開山については、火災で寺の貴重な文書が消失したこと、古い資料では記述が異なっていることなどから、断定が難しい。特筆すべきものとして「かまくらみち道標」がある。これは広重が画いた戸塚を代表する浮世絵に描かれている石碑といわれている。建立は延宝2年（1674）とある。(文:戸塚見知楽会)",
           "howtogetthere":""
           },
           { "title":"八幡大神（東峯八幡）",
           "name":"八幡大神（東峯八幡）",
           "position":{ "lat":35.407906, "lng":139.542316},
           "status":"unchecked",
           "image":"res/tounominehachiman.jpg",
           "description":"祭神は応神天皇。伝承によれば永久2年（1114）名主渡辺家の祖が吉田町打越に勧請したのが始まりで、その後現在地に遷座したといわれている。境内にあるシイの古木には、源義家（八幡太郎）が東国へ行く折この木に馬をつなぎ休息したという話が伝わっている。参道入口の鳥居の横には戸塚の文人味岡露繍（ろしゅう）が建てた大江匡房（平安後期の学者で義家の師でもあった）の歌碑がある。また参道脇には幾つかの石仏、社殿への石段のところには珍しい八角形の庚申塔、五角形の地神塔をはじめ多くの石仏がある。参道の桜並木は鎌倉鶴岡八幡宮の段葛（だんかづら）を模して植えられたともいわれている。(文:戸塚見知楽会)",
           "howtogetthere":""
           },
           { "title":"江戸方見付跡",
           "name":"江戸方見付跡",
           "position":{ "lat":35.408690, "lng":139.539041},
           "status":"unchecked",
           "image":"res/edokatamitsuke.jpg",
           "description":"慶長9年（1604）戸塚宿ができ、江戸側に江戸方見付、京都側に上方見付が設けられた。その間の20町19間（約2.2Km）が宿の範囲となった。(文:戸塚見知楽会)",
           "howtogetthere":""
           },
           { "title":"宝蔵院",
           "name":"宝蔵院",
           "position":{ "lat":35.409508, "lng":139.540057},
           "status":"unchecked",
           "image":"res/houzouin.jpg",
           "description":"古義真言宗。本尊は不動明王。寺伝によれば、弘仁11年（820）空海が関東、東北方面に伝導の旅に出た折（いわゆる弘法大師の東国巡錫）、吉田町大日谷（戸塚税務署付近）に留まり、寺を建立し「東高野」と称したのが始まりといわれている。天文16年（1547年）に中興の祖といわれる朝興が再建したという。寛永のころ（1624〜44）戸塚駅東口付近に移り、昭和18年（1943）に現在地に移った。本堂横には地蔵をはじめ多くの石仏、奥には地蔵堂、本堂前には扇供養碑などがある。(文:戸塚見知楽会)",
           "howtogetthere":""
           },
           { "title":"五大夫橋",
           "name":"五大夫橋",
           "position":{ "lat":35.410778, "lng":139.539931},
           "status":"unchecked",
           "image":"res/godayuubashi.jpg",
           "description":"小田原北条氏の家臣であった石巻康敬（五大夫）は北条氏が滅んでから中田（現泉区内）に蟄居していたが、天正18年（1590）徳川家康の関東移封の際、この橋の付近で家康を迎え、許されて中田村の領主となった。橋はこれに因んで五大夫橋と名付けられたと伝えられている。(文:戸塚見知楽会)",
           "howtogetthere":""
           },
           { "title":"鎌倉ハムの蔵",
           "name":"鎌倉ハムの蔵",
           "position":{ "lat":35.412506, "lng":139.541755},
           "status":"unchecked",
           "image":"res/kamakurahamu.jpg",
           "description":"明治7年（1874）英国人ウイリアム・カーチスが柏尾の地で、外国人向けのホテルや居留地に供給すべく、ハムの製造を始めた。ハム製造工場の使用人は外国人だけと閉鎖的だったという。その後日本人がその技術を取得し（その経緯については諸説がある）、国産ハムの製造・販売を始めた。鎌倉郡で作られたハム「鎌倉ハム」はブランドネームとなり、各地で競って鎌倉ハムの名称を使い、製造・販売したと言われている。明治20年（1887）に創業した斎藤紹介のこの蔵は、大正7年（1918）に建てられたという。(文:戸塚見知楽会)",
           "howtogetthere":""
           },
           { "title":"大山前不動",
           "name":"大山前不動",
           "position":{ "lat":35.415221, "lng":139.542932},
           "status":"unchecked",
           "image":"res/ooyamamaefudou.jpg",
           "description":"江戸時代中期以降、大山詣が大きな盛り上がりをみせ、幾通りかの大山道ができた。柏尾からの「柏尾通通大山道」は、江戸から真っ直ぐ大山に向かう矢倉沢往還（いまの国道246号線）や藤沢道と並ぶ代表的な道だった。堂の中には「従是大山道（これよりおおやまみち）」と記された石柱の上に、半跏の姿をした不動明王が安置されている。東海道の脇には鳥居も立っていたが、関東大震災で倒壊した。鳥居にかけてあった「阿夫利神社」の扁額は堂内の壁にかけられている。堂の周りには、近くにあった道標、庚申塔などの石碑が集約されて置かれている。(文:戸塚見知楽会)",
           "howtogetthere":""
           },
           { "title":"益田家のモチノキ",
           "name":"益田家のモチノキ",
           "position":{ "lat":35.414858, "lng":139.543218},
           "status":"unchecked",
           "image":"res/masudake_mochinoki.jpg",
           "description":"モチノキは暖かい西日本に多く、関東以北では珍しいといわれている。一般的にモチノキの大きさは樹高10mくらいとされるが、ここの日本のモチノキ（何れも雌株）は、樹齢が300年を超えるといわれ、樹高が18mと19m、目通りが2.4mと3.2mと格別の大きさで、相模モチと呼ばれて親しまれ、県指定天然記念物となっており、かながわの名木百選にも入っている。(文:戸塚見知楽会)",
           "howtogetthere":""
           },
           { "title":"成正寺",
           "name":"成正寺",
           "position":{ "lat":35.414245, "lng":139.545858},
           "status":"unchecked",
           "image":"res/jyousyouji.jpg",
           "description":"浄土真宗本願寺派。本尊は阿弥陀如来。寺伝によれば古くは天台宗であったが、覚順〔文亀元年（1501）寂〕により浄土真宗に改宗したという。境内の薬師堂には、天台宗の寺だったときの本尊薬師如来が厨子に納められ安置されている。(文:戸塚見知楽会)",
           "howtogetthere":""
           },
           { "title":"王子神社",
           "name":"王子神社",
           "position":{ "lat":35.415889, "lng":139.546464},
           "status":"unchecked",
           "image":"res/ouji.jpg",
           "description":"祭神は鎌倉宮（大塔宮）と同じ護良（もりよし）親王である。護良親王（1308〜1335）は後醍醐天皇の皇子で、仏門に入って尊雲と称し、天台座主となった。その後還俗して後醍醐天皇と共に倒幕をはかり、建武の新政を進めるが、足利尊氏と対立し捕らえられ、尊氏の弟直義がいる鎌倉に送られ幽閉された。直義は北条高時（14代執権）の子時行が建武２年（1335）に鎌倉を攻めたとき防ぎきれず、逃げるときに家来の淵野辺義博に命じて護良親王を殺害させた。伝説によれば親王が殺害された後、侍女がその首を南朝方の豪族斎藤家を頼って戸塚まで運び、この神社に葬ったという。近くには親王の首を洗い清めたという「首荒い井戸」、祭壇を作って供養したという「四つ杭」がある。(文:戸塚見知楽会)",
           "howtogetthere":""
           },
           { "title":"子之八幡社",
           "name":"子之八幡社",
           "position":{ "lat":35.396413, "lng":139.536859},
           "status":"unchecked",
           "image":"res/nenohachiman.jpg",
           "description":"祭神は大己貴尊（おおなむちのみこと＝大国主命）と応神天皇。同町内に鎮座していた八幡宮が大正４年（1915）に焼失し、同年子之神社に合祀され、それから子之八幡社になったといわれている。境内には庚申塔、道祖神、地神塔など多くの石仏が並んでいる。(文:戸塚見知楽会)",
           "howtogetthere":""
           },
           { "title":"戸塚駅",
           "name":"戸塚駅",
           "position":{ "lat":35.400720, "lng":139.534088},
           "status":"unchecked",
           "image":"res/totsuka.jpg",
           "description":"明治５年（1872）に東京（新橋）から横浜（桜木町）まで開通した鉄道が、明治20年（1887）国府津まで延長され、同年7月1日に戸塚駅が開業した。明治22年には横須賀線が開通した。昭和5年（1930）の横須賀線電化に伴い、東海道線は停車しなくなったが、昭和55年（1980）から再び東海道線も停車するようになった。この間昭和12年（1937）には裏口（東口）が開設されている。また昭和62年（1987）には横浜市営地下鉄が戸塚駅まで延伸され、平成11年（1999）に湘南台駅まで達した。(文:戸塚見知楽会)",
           "howtogetthere":""
           },
           { "title":"盛徳寺",
           "name":"盛徳寺",
           "position":{ "lat":35.394152, "lng":139.537136},
           "status":"unchecked",
           "image":"res/seitokuji.jpg",
           "description":"曹洞宗。本尊は聖観世音菩薩。阿波徳島藩三代藩主蜂須賀忠英の次男で、支藩富田藩の初代藩主となった隆重の夫人が、江戸参府の途中戸塚宿で発病、ここにあった養東院で亡くなり〔貞享元年（1684）〕、その廟所となった。夫人の法名盛徳院をとって寺名を盛徳院と改め、整備したといわれている。ここは蜂須賀家と縁が深く、墓所には盛徳院の墓や蜂須正勝（小六）の供養塔がある。山門の右手に昭和60年（1985）に建てられた大川観音がある。(文:戸塚見知楽会)",
           "howtogetthere":""
           },
           { "title":"蔵田寺",
           "name":"蔵田寺",
           "position":{ "lat":35.391986, "lng":139.536461},
           "status":"unchecked",
           "image":"res/zoudenji.jpg",
           "description":"浄土宗。本尊は阿弥陀如来。法誉粗道〔慶長２年（1597）没〕が草案を結んだのが始めで、次の代に戸塚宿の一台勢力であった伊勢屋一族の中出家の当主が現在地に本堂を建てて移転させ、寺としての形を整えたという。かつてこのあたりにあったという誘引堂（さそうどう）には千手観音が安置され、相州鎌倉郡三十三観音の21番札所であった。境内に舟形のものとして市内最古といわれる庚申塔〔明暦２年（1656）〕や馬頭観音などの石仏が多くある。(文:戸塚見知楽会)",
           "howtogetthere":""
           },
           { "title":"実方塚",
           "name":"実方塚",
           "position":{ "lat":35.391814, "lng":139.539617},
           "status":"unchecked",
           "image":"res/sanekatazuka.jpg",
           "description":"平安時代中期の貴族で歌人の藤原実方が、陸奥守に任じられ、東国へ下向の途中、一行の一人がここで没したと伝えられている。この地には現在も実方姓を名乗る人たちが住んでいて、ここで没した実方所縁の者を先祖として、供養を続けている。明治8年（1875）に実方一族が実方と夫人の供養塔を、また昭和36年（1961）に実方が詠んだ百人一首の「かくとだに　えやはいぶきの　さしも草　さしも知らじな　燃ゆる思ひを」の歌碑を建立した。同素整備事業で当初の場所から移設されここに安置された。実方が陸奥守に任じられたことについては、宮中で無礼な振る舞いがあり、一条天皇の怒りにふれたため、との説が鎌倉時代の説話集「古事談」などに載せられていて、いわゆる「実方伝説」を産んだ。(文:戸塚見知楽会)",
           "howtogetthere":""
           },
           { "title":"延命地蔵",
           "name":"延命地蔵",
           "position":{ "lat":35.385623, "lng":139.537276},
           "status":"unchecked",
           "image":"res/enmei.jpg",
           "description":"堂の中には地蔵尊〔正徳３年（1713）〕が祀られている。また脇には馬頭観音〔文字塔　嘉永4年（1851）〕がある。(文:戸塚見知楽会)",
           "howtogetthere":""
           },
           { "title":"南谷戸の大わらじ",
           "name":"南谷戸の大わらじ",
           "position":{ "lat":35.383742, "lng":139.536543},
           "status":"unchecked",
           "image":"res/waraji.jpg",
           "description":"ここは前面に鎌倉への道が通じていて多くの旅人の行き来があった。松の小枝にわらじを吊るし村の安泰と旅人の安全を祈願したのがルーツといわれている。現在のような大わらじを掲げるようになったのは、大正時代にこの地の青年達が村おこしとして藁加工品の生産を始めたのがきっかけになったといわれている。昭和58年（1983）から現在の鉄枠に吊るされているが、昔は松の木に吊るしていた。長さ3.5m、幅1.5m、重さ200kg余りという。今も３〜４年ごとに作りかえられている。なおこれと同じ規格のものがハワイに送られ、日本文化センターに展示されている。敷地内に地神塔、庚申塔、馬頭観音、道祖神など、隣のやや高いところには山岳信仰などの石碑がある。(文:戸塚見知楽会)",
           "howtogetthere":""
           },
           { "title":"永勝寺",
           "name":"永勝寺",
           "position":{ "lat":35.383180, "lng":139.542853},
           "status":"unchecked",
           "image":"res/eisyouji.jpg",
           "description":"浄土真宗大谷派。本尊は阿弥陀如来。古くは長延寺と称し天台宗であったが、安貞２年（1228）、住職が親鸞に帰依し、浄土真宗に改宗したという。甲斐の武田氏と縁が深かったため、武田氏と北条氏の争いに翻弄され、天文元年（1532）には北条氏に堂宇が焼かれ、甲斐に逃れるという災難があった。その後この地に戻り、北条氏の圧迫をさけるため寺号を永勝寺と改めたといわれている。本尊の阿弥陀如来は、下馬しないで前を通ると落馬するので、顔に面をかけたという言い伝えがあり、面懸如来（めんかけにょらい）と呼ばれている。また神奈川県の重要文化財に指定されている聖徳太子像が安置されている。太子像には、堂が雨漏りしたとき「笠を着せよ」と叫ぶ声があったとの伝説があり、笠乞太子と呼ばれている。境内には樹齢700年といわれるイヌマキや銀杏などの名木がある。(文:戸塚見知楽会)",
           "howtogetthere":""
           },
           { "title":"力石",
           "name":"力石",
           "position":{ "lat":35.385444, "lng":139.542015},
           "status":"unchecked",
           "image":"res/chikaraishi.jpg",
           "description":"娯楽の少なかった昔、村の若者達が、ここにある二つの石で力比べをして楽しんだと言われている。(文:戸塚見知楽会)",
           "howtogetthere":""
           },
           { "title":"紅葉滝",
           "name":"紅葉滝",
           "position":{ "lat":35.415889, "lng":139.546464},
           "status":"unchecked",
           "image":"res/momijitaki.jpg",
           "description":"昔の下倉田村は西に柏尾川が流れ、東は三方が丘陵に囲まれ、谷奥に高さ15m、幅1.5mほどの滝があった。夏でも冷気を感じるほどで、紅葉滝と称され、御嶽講信仰の霊場・修練場となっていたという。昭和60年（1985）宅地開発に伴い人工滝として残した。隣には不動明王〔元禄３年（1690）〕を祀る祠がある。(文:戸塚見知楽会)",
           "howtogetthere":""
           },
           { "title":"舞岡公園",
           "name":"舞岡公園",
           "position":{ "lat":35.386631, "lng":139.548478},
           "status":"unchecked",
           "image":"res/maioka.jpg",
           "description":"昔から残っている自然や谷戸の地形を生かした総合公園で、舞岡町を中心に港南区の一部も含んでいる。平成5年（1993）６月に開園した。市民が田植えや稲刈りを体験したり、野生動物や昆虫の自然観察をすることができる。小八戸（こやと）の里には、平成7年（1995）に品濃町から移築、復元した明治時代初期の古民家がある。(文:戸塚見知楽会)",
           "howtogetthere":""
           },
           { "title":"舞岡八幡宮",
           "name":"舞岡八幡宮",
           "position":{ "lat":35.400102, "lng":139.550038},
           "status":"unchecked",
           "image":"res/maiokahachiman.jpg",
           "description":"祭神は誉田別命（ほんだわけのみこと＝応神天皇）など六神。乾元元年（1302）に空に白旗が舞ったので、村の名を腰村から舞岡村に改め、京の石清水八幡宮を勧請したといわれている。近くを鎌倉中の道（なかのみち）が通っていたので、鎌倉への行き来の途中、武門の守護神として参拝する御家人、郎党が多かったという。４月15日の例祭日には伝統行事「湯花神楽（ゆばなかぐら）」が行われる。寛文６年（1666）の庚申塔のほか、三山供養塔、道祖神、地神党、石祠などがある。(文:戸塚見知楽会)",
           "howtogetthere":""
           },
           { "title":"御嶽神社",
           "name":"御嶽神社",
           "position":{ "lat":35.419149, "lng":139.552364},
           "status":"unchecked",
           "image":"res/mitake_kamikashio.jpg",
           "description":"創建は健仁2年（1202）といわれ、祭神は日本武尊。日本武尊を追慕するため石造りの祠を建てたのが始まりで、文化年間（1804〜1818）に神社として再建されたと言われている。日本武尊が東夷征討の際、足柄峠ー相模ー走水ー（浦賀水道）ー上総の経路をとったとされていることもあって、神奈川県には日本武尊や弟橘媛を祭神とする神社が三十数社もある。(文:戸塚見知楽会)",
           "howtogetthere":""
           },
           { "title":"赤関橋",
           "name":"赤関橋",
           "position":{ "lat":35.420869, "lng":139.553107},
           "status":"unchecked",
           "image":"res/akasekibashi.jpg",
           "description":"平戸長谷川に架かる橋で、昔は長さ５間（約９m）、幅2間半（約4.5m）の土橋であった。現在の風景とは異なり、赤関（堰）の水門には水を湛え、街道には松並木が続き、難所権太坂、品濃坂を超え、戸塚入りする旅人が、広々としたところに出てほっとした気分になり、涼をとったり顔や手足を洗ったりするのに絶好な地であったと思われる。(文:戸塚見知楽会)",
           "howtogetthere":""
           },
           { "title":"清源院",
           "name":"清源院",
           "position":{ "lat":35.401789, "lng":139.531873},
           "status":"unchecked",
           "image":"res/seigenin.jpg",
           "description":"浄土宗。徳川家康の側室の一人於万の方（現泉区の岡津出身）が駿府へ家康の見舞いに行った時貰ったという歯吹（はふき）阿弥陀如来を本尊としている。家康の死後於万の方が、鎌倉時代からあった長円寺に入り、清源院と改名した。墓地最上部に於万の方の火葬地の碑、本堂横に朝日堂（鎌倉郡三十三観音２２番札所）、境内に庚申塔、心中句碑、芭蕉句碑がある。心中句碑は、この寺の井戸で心中した和解男女を悼んで、この寺の躍誉が建てたもので、「井にうかぶ番ひのはてや秋の蝶」とある。芭蕉句碑は当地の俳人味岡露繍（あじおかろしゅう）が建てたもので「世の人の見つけぬ花や軒の栗」とある。(文:戸塚見知楽会)",
           "howtogetthere":""
           },
           { "title":"高松寺",
           "name":"高松寺",
           "position":{ "lat":35.399996, "lng":139.529052},
           "status":"unchecked",
           "image":"res/kousyouji.jpg",
           "description":"臨済宗鎌倉円覚寺の末寺。潤岳山と号する。本尊は聖観世音菩薩。寺名は開基高松三郎頼重の名に由来する。開山は龍甫珠公〔文和３年（1354）寂〕。楼門は平成３年に改築されたもの。本堂の天井に京都の絵師由人による龍が描かれている。山頂に「高松塚」といわれる塚があり、高松三郎の墳墓とされる。かつては富士信仰が盛んで、山門の脇に冨士講碑３基〔弘化４年（1847）、嘉永２棯（1849）２基〕がある。(文:戸塚見知楽会)",
           "howtogetthere":""
           },
           { "title":"内田本陣跡",
           "name":"内田本陣跡",
           "position":{ "lat":35.400102, "lng":139.531281},
           "status":"unchecked",
           "image":"res/uchida.jpg",
           "description":"戸塚宿に２軒あった本陣の一つ（七郎右衛門）で、現在の戸塚郵便局の辺りにあった。(文:戸塚見知楽会)",
           "howtogetthere":""
           },
           { "title":"問屋場跡",
           "name":"問屋場跡",
           "position":{ "lat":35.398937, "lng":139.531150},
           "status":"unchecked",
           "image":"res/toiyaba.jpg",
           "description":"戸塚郵便局から藤沢方面へ向かって100m程行ったところの左側にあった。戸塚宿の問屋場は、吉田町と矢部町にもあり、３ヶ所が交代で人馬継立業務を行った。ここの問屋場は中宿の問屋場と呼ばれ、毎月12日から月末まで問屋場を勤めた。(文:戸塚見知楽会)",
           "howtogetthere":""
           },
           { "title":"沢邊本陣跡・羽黒神社",
           "name":"沢邊本陣跡・羽黒神社",
           "position":{ "lat":35.397601, "lng":139.530529},
           "status":"unchecked",
           "image":"res/sawabe.jpg",
           "description":"戸塚宿に２軒あった本陣の一つ（九郎右衛門）。戸塚は慶長６年（1601）に宿駅精度が出来たとき、宿場に指定されなかったが、澤邊家の当主澤邊宗三の尽力により慶長９年（1604）に宿場として認められ、戸塚宿が開設された。慶長９年２月２９日付けの澤邊宗三の訴状が残っている。道路に面して明治天皇の行在所の碑がある。奥の羽黒神社は、澤邊家の祖澤邊信友が故郷出羽国の羽黒神社を勧請したもので、倉稲魂命（うかのみたまのみこと）を祭神としている。(文:戸塚見知楽会)",
           "howtogetthere":""
           },
           { "title":"海蔵院",
           "name":"海蔵院",
           "position":{ "lat":35.396861, "lng":139.529755},
           "status":"unchecked",
           "image":"res/kaizouin.jpg",
           "description":"臨済宗円覚寺派。貞治２年（1363）に創建された。本尊は釈迦如来。入口右に鐘撞き堂があり、戸塚宿の時報となっていたが、現在は撞かれていない。門に彫られている龍は左甚五郎の作と伝えられている。境内には「持ち上がり地蔵」という六地蔵や、戸塚の俳人長坂志行の俳句が刻まれた墓がある。(文:戸塚見知楽会)",
           "howtogetthere":""
           },
           { "title":"八坂神社・高札場跡",
           "name":"八坂神社・高札場跡",
           "position":{ "lat":35.395233, "lng":139.529873},
           "status":"unchecked",
           "image":"res/yasaka_totsuka.jpg",
           "description":"江戸時代は牛頭天王（ごづてんのう）を祀っていて天王社と称していた。いまも「お天王さま」の通称で親しまれている。現在の祭神は素戔嗚命（すさのおのみこと）。祭日の７月14日には、女装した男が音頭にあわせて歌い踊り、ボテカツラをした男が音頭にあわせて札をまく「お札まき」が行われ、横浜市指定の無形文化財になっている。「お札まき」は厄除け行事とされていて、歌の中に「お札授かった者は病をよける。コロリも逃げる、ソラソラまくぞ。」とある。江戸時代には神社の隣に高札場が設けられていた。(文:戸塚見知楽会)",
           "howtogetthere":""
           },
           { "title":"富塚八幡宮",
           "name":"富塚八幡宮",
           "position":{ "lat":35.393609, "lng":139.528739},
           "status":"unchecked",
           "image":"res/tomizukahachiman.jpg",
           "description":"戸塚の総鎮守社。平安時代に源頼義・義家父子が、奥州の前九年の役〔永承６年（1051）〜康平５年（1062）〕に出陣の途次、ここに露営し霊夢を見て神託を賜ったという。その加護で戦に勝ったことに感謝して、延久４年（1072）に誉田別命（ほんだわけのみこと＝応神天皇）、冨属彦命（とつきひこのみこと、相模国造弟武彦の二世の孫）を祀り、社殿を造営したと伝えられている。社殿の裏山の古墳は未発掘であるが、市の埋文センターの調査によれば全長32mの前方後円墳で、冨属彦命が葬られているとされている。神社の名前の「冨塚」が戸塚の語源ともいわれている。芭蕉句碑「鎌倉を生きて生けむ初がつお」がある。(文:戸塚見知楽会)",
           "howtogetthere":""
           },
           { "title":"上方見付跡",
           "name":"上方見付跡",
           "position":{ "lat":35.392841, "lng":139.527027},
           "status":"unchecked",
           "image":"res/kamigatamitsuke.jpg",
           "description":"宿場の出入口として２ヶ所に設けられた見付のうち京都に近い方を上方見付と呼ぶ。江戸方見付からの距離が20町19間（約2.2Km）あり、この間が宿場とされた。昭和63年（1988）に横浜市指定文化財に指定された。江戸に向って右側に松、左側に楓が植えられていた。今も石積みで囲った中に木を植えて名残を留めている。(文:戸塚見知楽会)",
           "howtogetthere":""
           },
           { "title":"第六天社",
           "name":"第六天社",
           "position":{ "lat":35.392820, "lng":139.525495},
           "status":"unchecked",
           "image":"res/dairokuten.jpg",
           "description":"神仏習合の時代に、仏教でいう第六天（他化自在天）を住所とする魔王を祀っていたが、明治初年の神仏分離により、神代で六番目に出現したとされる面足命・惶根命（おもだるのみこと・あやかしこねのみこと）に祭神が変更された。境内に天保10年（1839）の産鬼碑（「鬼」の字は実際の碑では「しめすへん」のついた古字が刻まれている）、冨士講の先達藤行翁之碑〔架永７年（1854）〕がある。(文:戸塚見知楽会)",
           "howtogetthere":""
           },
           { "title":"大坂の庚申塔群",
           "name":"大坂の庚申塔群",
           "position":{ "lat":35.392248, "lng":139.524410},
           "status":"unchecked",
           "image":"res/oosaka_koushintou.jpg",
           "description":"第六天から少し大阪を登りかけたところに８基の庚申塔が建ち並んでいる。元禄４年（1691）、同６年（1693）、同８年（1695）、享保３年（1718）の４基が像刻塔、延宝５年（1677）、同６年（1678）、正徳４年（1714）、寛保３年（1743）の４基が文字塔になっている。少し坂を登った所には文政元年（1818）の馬頭観音がある。(文:戸塚見知楽会)",
           "howtogetthere":""
           },
           { "title":"大坂の碑",
           "name":"大坂の碑",
           "position":{ "lat":35.391153, "lng":139.523524},
           "status":"unchecked",
           "image":"res/oosaka.jpg",
           "description":"大坂台のバス停近くに「おおさか」の碑がある。江戸時代には現在おりずっと急な坂で、一番坂、二番坂と続いていた。嘉永６年（1853）に川越藩の武士須藤九右衛門の子、隼太郎、平次郎、金三郎の三兄弟が、親の仇の原鑊を討ち取った「二番坂の仇討」が記録に残っている。(文:戸塚見知楽会)",
           "howtogetthere":""
           },
           { "title":"西立寺・熊野神社",
           "name":"西立寺・熊野神社",
           "position":{ "lat":35.384169, "lng":139.522776},
           "status":"unchecked",
           "image":"res/sairyuuji_kumano.jpg",
           "description":"西立寺は浄土宗で熊野山松樹院と号する。本尊は阿弥陀如来。享禄年間（1528〜1532）に村民の信之右衛門が、紀州の熊野山に詣でて、当地に熊野神社を勧請した。信之右衛門は剃髪し信阿と号し、神社の傍らに草庵を結んで閑居した。その後弘治元年（1555）に無歴という僧が草庵の跡に浄土宗のこの寺を創建した。熊野神社の社殿は、創建450年に当たって、昭和54年に再建された。(文:戸塚見知楽会)",
           "howtogetthere":""
           },
           { "title":"親縁寺",
           "name":"親縁寺",
           "position":{ "lat":35.391110, "lng":139.529202},
           "status":"unchecked",
           "image":"res/shinnenji.jpg",
           "description":"元真言宗であったものを、時宗の総本山清浄光寺（遊行寺）を開いた呑海が、元応２年（1320）に時宗に改めたとされる。本尊は阿弥陀如来。寺名の由来は、念仏の三種の功徳を表す三縁（親縁・近縁・増上縁）の一つによっている。門前の階段下には、寛文13年（1694）の阿弥陀如来像および地蔵像、元禄７年（1694）の庚申塔、文化11年（1814）南無阿弥陀仏名号塔の４基の石仏・石塔が立っている。春には牡丹が花を咲かせる。雨に弱い牡丹の花は傘で守られている。(文:戸塚見知楽会)",
           "howtogetthere":""
           },
           { "title":"柏尾川堤の桜並木",
           "name":"柏尾側堤の桜並木",
           "position":{ "lat":35.396047, "lng":139.533102},
           "status":"unchecked",
           "image":"res/sakura.jpg",
           "description":"柏尾川の桜並木は、江戸時代末期に大雨で壊れた堤防を直した記念に植えられたのが始まりといわれている。昭和の初期には関東屈指の桜の名所として有名になり、川には屋形船が浮かび、土手には屋台が並んで、大勢の花見客で賑わった。与謝野鉄幹・昌子もこの頃の桜並木を歌に詠んでいる。耕地整理や戦争、河川の改修工事で桜が伐採されたこともあったが、その度に植え直され、今も毎年大勢の花見客で賑わう。川の洲に咲く「ミズキンバイ」はアカバナ科の多年草で、日本国内には少なく、絶滅危惧種に指定されている。現在は４県（千葉県・神奈川県・高知県・宮崎県）で確認されているだけで、都市河川で生育しているのは柏尾川のみという。(文:戸塚見知楽会)",
           "howtogetthere":""
           },
           { "title":"五霊神社",
           "name":"五霊神社",
           "position":{ "lat":35.393389, "lng":139.516310},
           "status":"unchecked",
           "image":"res/gorei_kumisawa.jpg",
           "description":"元亀２年（1571）の創建。慶長２年（1597）に再興したとき、桓武平氏の村岡良文、その子孫鎌倉権五郎景政など５人を祀って五霊社としたという。境内に庚申塔、地神塔、馬頭観音、二十三夜塔、山岳信仰碑など多くの石碑が立ち並んでいる。石段下の鳥居の脇に、昭和14年（1939）にこの地が横浜市に合併されたときの記念碑がある。正月には千人を超える初詣客で賑わう。スダジイが市の名木古木に指定されている。(文:戸塚見知楽会)",
           "howtogetthere":""
           },
           { "title":"宝寿院",
           "name":"宝寿院",
           "position":{ "lat":35.391165, "lng":139.513257},
           "status":"unchecked",
           "image":"res/houjyuin.jpg",
           "description":"古義真言宗。汲沢山願行寺と号する。本山は京都嵯峨野の大覚寺。本尊は願行作とされる不動明王で、現在秘仏とされており、酉年ごとに開帳法要が行われる。門前に江戸時代の修行僧木食観正（もくじきかんしょう）の碑があるほか、二十三夜塔、梵字石碑などがある。またイチョウの大木、しだれ桜が市の名木古木に指定されている。(文:戸塚見知楽会)",
           "howtogetthere":""
           },
           { "title":"中村三叉路の石仏・石碑群(大山不動尊）",
           "name":"大山不動尊",
           "position":{ "lat":35.391732, "lng":139.509712},
           "status":"unchecked",
           "image":"res/ooyamafudou_nakamura.jpg",
           "description":"中村三叉路付近に成田不動尊、大山不動尊、地蔵尊などが散在している。両不動尊とも矜迦羅（こんがら）童子、制多迦（せいたか）童子を従えている。大山不動は小堂に祀られている。地蔵尊は子を抱いた姿で子育地蔵尊として知られている。毎年８月供養に栗餅が配られるので栗餅地蔵尊とも呼ばれている。地蔵尊の横に旧汲沢村の元標（げんぴょう）跡の記念碑がある。元標は道路の起点・終点や主な経過点を表示する標識として大正時代に設けられたものである。(文:戸塚見知楽会)",
           "howtogetthere":""
           },
           { "title":"中村三叉路の石仏・石碑群（成田不動尊）",
           "name":"成田不動尊",
           "position":{ "lat":35.390486, "lng":139.510949},
           "status":"unchecked",
           "image":"res/naritafudou_nakamura.jpg",
           "description":"中村三叉路付近に成田不動尊、大山不動尊、地蔵尊などが散在している。両不動尊とも矜迦羅（こんがら）童子、制多迦（せいたか）童子を従えている。大山不動は小堂に祀られている。地蔵尊は子を抱いた姿で子育地蔵尊として知られている。毎年８月供養に栗餅が配られるので栗餅地蔵尊とも呼ばれている。地蔵尊の横に旧汲沢村の元標（げんぴょう）跡の記念碑がある。元標は道路の起点・終点や主な経過点を表示する標識として大正時代に設けられたものである。(文:戸塚見知楽会)",
           "howtogetthere":""
           },
           { "title":"中村三叉路の石仏・石碑群（子育地蔵尊）",
           "name":"子育地蔵尊",
           "position":{ "lat":35.390965, "lng":139.509919},
           "status":"unchecked",
           "image":"res/koiku.jpg",
           "description":"中村三叉路付近に成田不動尊、大山不動尊、地蔵尊などが散在している。両不動尊とも矜迦羅（こんがら）童子、制多迦（せいたか）童子を従えている。大山不動は小堂に祀られている。地蔵尊は子を抱いた姿で子育地蔵尊として知られている。毎年８月供養に栗餅が配られるので栗餅地蔵尊とも呼ばれている。地蔵尊の横に旧汲沢村の元標（げんぴょう）跡の記念碑がある。元標は道路の起点・終点や主な経過点を表示する標識として大正時代に設けられたものである。(文:戸塚見知楽会)",
           "howtogetthere":""
           },
           { "title":"まさかりが淵",
           "name":"まさかりが淵",
           "position":{ "lat":35.388013, "lng":139.508320},
           "status":"unchecked",
           "image":"res/masakari.jpg",
           "description":"宇田側の河畔からまさかりが淵市民の森が広がっている。「まさかりが淵」の伝説で知られる幅5m、高さ3mほどの滝がある。伝説によれば、その昔彦八というきこりが、滝壺にまさかりを落としたが、それが池に住む魔物にあたり、魔物を退治してしまった。彦八はお礼に、滝の主のお姫様のもてなしを受けたが、誰にもそのことを話さないというお姫様との約束を破って、村人にこのことを話してしまったため、息絶えたという。滝の右岸に彦八の供養碑がある。春には梅、桜などの花が咲き、秋には紅葉が映え、野鳥も集まって、市民の散策の場として親しまれている。(文:戸塚見知楽会)",
           "howtogetthere":""
           },
           { "title":"専念寺",
           "name":"専念寺",
           "position":{ "lat":35.385188, "lng":139.504635},
           "status":"unchecked",
           "image":"res/sennenji.jpg",
           "description":"鎌倉権五郎景政の守護仏の薬師如来を安置する祈願所っであったと伝えられている。景政の子孫の梶原景時が堂を再建して、古義真言宗の福泉寺とした。後に浄土宗の専念寺に改められた。本尊の薬師如来は、頭部は江戸時代のものであるが、体部は室町時代の作風を伝える像で、戌年ごとに開帳される秘仏となっている。鎌倉景政は平安時代奥州の後三年の役に、弱冠16歳で源義家に従って出陣し、片眼を射られながらも敵を倒した。味方の武将三浦為次がその矢を抜いてやろうと、顔を踏んだところ大いに怒って切りかかり、跪（ひざまず）いて抜かせたという逸話がある。その剛勇ぶりから鎌倉武士の象徴的存在となり、歌舞伎十八番の「暫」の主人公にもなっている。景政が戦いから帰り、守護仏の薬師如来に願をかけて、寺の前の清流で傷ついた目を洗ったところ、たちまちにして癒えたとの言い伝えから、眼病に霊験あらたかな「深谷目薬師」として信仰された。(文:戸塚見知楽会)",
           "howtogetthere":""
           },
           { "title":"三嶋神社",
           "name":"三嶋神社",
           "position":{ "lat":35.385060, "lng":139.503710},
           "status":"unchecked",
           "image":"res/mishima.jpg",
           "description":"梶原景時が専念寺を再建するに当たり、傍らの岡に伊豆の三嶋神社を勧請して創建したという。大山祇命（おおやまつみのみこと）とともに、景時の先祖の鎌倉景政が祭神とされている。江戸時代までは御霊社と称していたが、後に社号を三嶋神社と改めた。境内には地神塔がある。宇田川沿いの道から三嶋神社に入るところに、富士講碑３基がある。もとは山の上（現在戸塚西公園になっている）にあったといわれている。(文:戸塚見知楽会)",
           "howtogetthere":""
           },
           { "title":"福泉寺",
           "name":"福泉寺",
           "position":{ "lat":35.380880, "lng":139.495477},
           "status":"unchecked",
           "image":"res/fukusenji.jpg",
           "description":"曹洞宗。北谷山と号する。本尊は釈迦牟尼仏。廃寺になっていたのを寛永６年（1629）に地頭木原平三郎が再興したと伝えられている。当時相模国に東谷山、西谷山、南谷山の三か寺の福泉寺があり、この寺が北にあったので北谷山と称したという。山門には見事な阿吽の竜の彫刻があった、この寺の守護となっている。(文:戸塚見知楽会)",
           "howtogetthere":""
           },
           { "title":"俣野観音堂",
           "name":"俣野観音堂",
           "position":{ "lat":35.381154, "lng":139.491045},
           "status":"unchecked",
           "image":"res/matano.jpg",
           "description":"治承４年（1180）に源頼朝が平氏打倒を掲げて石橋山に挙兵したとき、俣野五郎景久は兄の大庭景親とともに平家方について戦い、敵将佐奈田与一を討ち取って、頼朝軍を敗走させた。景久はその後北陸で、頼朝の従兄弟の木曾義仲と戦って討ち死したが、その際守護仏の十一面観音菩薩を故郷に持ち帰るよう家来に託した。その仏を安置したのがこの観音堂といわれている。堂は平成22年（2010）に建てかえられた。敷地には地神塔、庚申塔がある。(文:戸塚見知楽会)",
           "howtogetthere":""
           },
           { "title":"龍長院",
           "name":"龍長院",
           "position":{ "lat":35.372325, "lng":139.496688},
           "status":"unchecked",
           "image":"res/ryuucyouin.jpg",
           "description":"曹洞宗。天王山と号する。本尊は釈迦牟尼仏。室町時代に相模入道西林が、堅心を開山として真言宗の瀧長庵を創立した。その後慶安元年（1648）に永井丹波守白元が領主になった時、祈願所として堂宇を改築し、曹洞宗の龍長院と改めた。地蔵堂には立派な延命地蔵尊が安置されている。岩肌から流出する清水は天王滝となり、下流は境川に注いでいる。境内に地蔵尊、不動明王、庚申塔、六地蔵、観音像群、地蔵像群、馬頭観音等、多くの石仏が立ち並んでいる。ここから坂を登り、国道一号線に出ると、影取歩道橋の横に龍長院入口を示す前不動明王像が石組みの上に祀られている。(文:戸塚見知楽会)",
           "howtogetthere":""
           },
           { "title":"八坂神社（八坂大神）",
           "name":"八坂神社（八坂大神）",
           "position":{ "lat":35.371328, "lng":139.494054},
           "status":"unchecked",
           "image":"res/yasaka_matano.jpg",
           "description":"享保４年（1719）の創建で、祭神は素盞鳴尊（すさのおのみこと）。社殿から少し離れて立つ第一鳥居の横に、庚申塔３基と地神塔があり、庚申塔の一つには「左へ八わうじ（八王子）道、右へかまくら道」と刻まれていて道標を兼ねていた。前は鎌倉街道上の道といわれる古道で、新田義貞が鎌倉攻略の時に進撃したと伝えられている。(文:戸塚見知楽会)",
           "howtogetthere":""
           },
           { "title":"お軽勘平の碑と東海道松並木",
           "name":"お軽勘平の碑と東海道松並木",
           "position":{ "lat":35.384685, "lng":139.515822},
           "status":"unchecked",
           "image":"res/okaru.jpg",
           "description":"名峰富士を望む戸塚の山中を舞台に、早野勘平とお軽の道行が演じられる忠臣蔵の名場面に因んで、「お軽勘平戸塚山中道行の場」の碑が建てられている。現在は西側に病院などの建物があってここから富士山は望めない。東海道と横浜新道の合流点から、この辺りを経て、吹上信号までの中央分離帯には、旧東海道の松並木の名残が見られる。(文:戸塚見知楽会)",
           "howtogetthere":""
           },
           { "title":"原宿の一里塚跡",
           "name":"原宿の一里塚跡",
           "position":{ "lat":35.380340, "lng":139.511875},
           "status":"unchecked",
           "image":"res/harajyuku_ichirizuka.jpg",
           "description":"吹上の一里塚とも呼ばれる。戸塚区内で品濃、吉田町に続く江戸から１１番目の一里塚であるが現在は吹上バス停から少し藤沢寄りに、説明板が立つのみ。(文:戸塚見知楽会)",
           "howtogetthere":""
           },
           { "title":"浅間神社",
           "name":"浅間神社",
           "position":{ "lat":35.380578, "lng":139.511301},
           "status":"unchecked",
           "image":"res/sengen_harajyuku.jpg",
           "description":"かつては原宿村の鎮守だった。木花佐久弥昆売命（このはなさくやひめのみこと）を祀っている。戦国時代永禄年間（1558〜1570）の創建と伝えられ、玉縄城主北条左衛門大夫の崇敬が篤かったという。社殿は種々変遷を経ているが、現在の本殿は安政５年（1858）の再建で、幾度かの改修を経て今日に至っている。鳥居の横に３基の庚申塔〔貞享３年（1686）、元禄６年（1693）、享保12年（1727）〕、境内に１基の庚申塔〔延宝５年（1677）〕等がある。参道のシイは市の名木古木に指定されている。(文:戸塚見知楽会)",
           "howtogetthere":""
           },
           { "title":"大運寺",
           "name":"大運寺",
           "position":{ "lat":35.379345, "lng":139.508375},
           "status":"unchecked",
           "image":"res/daiunji.jpg",
           "description":"浄土宗。唐澤山と号する。本尊は阿弥陀如来。慶長元年（1596）誓誉が開山した。慶安２年（1649）寺領３石５斗の朱印を賜っており、瓦に葵の紋が使われている。弘法の池（現在は大正団地内になっている。）の洞窟には、弘法大師の作とされる石造の地蔵尊座像があったが、現在は本堂内に安置されている。現在洞窟内にあるのは新しく作られた地蔵尊である。境内にはほかに地蔵尊立像や庚申塔がある（年紀不明）。(文:戸塚見知楽会)",
           "howtogetthere":""
           },
           { "title":"出羽三山碑ほか石仏群",
           "name":"出羽三山碑他石仏群",
           "position":{ "lat":35.378758, "lng":139.508858},
           "status":"unchecked",
           "image":"res/dewa.jpg",
           "description":"大運寺の向かい、歩道橋の下にある。鎌倉道、大山道、ほしのや道の道標を兼ねた文化８年（1811）の出羽三山碑があり、ほかに正徳２年（1712）の庚申塔と、多数の馬頭観音〔天保６年（1835）、同15年（1844）など〕がある。もと原宿交差点の近くにあったが、国道の立体工事に伴い移転を重ね、現在地に落ち着いている。(文:戸塚見知楽会)",
           "howtogetthere":""
           },
           { "title":"小雀バス停横石仏群",
           "name":"小雀バス停横石仏群",
           "position":{ "lat":35.374693, "lng":139.514345},
           "status":"unchecked",
           "image":"res/kosuzume.jpg",
           "description":"前面開放の堂の中にまとめれている。六地蔵は寛政７年（1795）に建立されたが、傷みがひどかったので昭和41年（1966）に再建された。天明２年（1782）の出羽三山供養塔には「右とつかみち、左ふじさわみち」と刻まれていて、道標を兼ねていた。そのほか寛政11年（1799）の庚申塔、嘉永４年（1851）、明治19年（1886）、同41年（1908）の馬頭観音などがある。なお嘉永４年のものには線刻で馬が描かれている。(文:戸塚見知楽会)",
           "howtogetthere":""
           },
           { "title":"燈明寺",
           "name":"燈明寺",
           "position":{ "lat":35.373549, "lng":139.513865},
           "status":"unchecked",
           "image":"res/toumyouji.jpg",
           "description":"臨済宗。金龍山と号し、鎌倉円覚寺の末寺である。開山は円仲省鏡で明徳年間（1390〜1394）に創建されたといわれている。本尊の阿弥陀三尊像のうち主尊の阿弥陀如来は平安時代末期に、また脇侍の観音・勢至菩薩も鎌倉時代初期に遡るものとされ、戸塚区内では最も古い仏像の一つである。寺は関東大震災で倒壊し、40年余り別の地にあったが、昭和43年（1968）に現在地に再建した。山門には江戸時代の書家佐文山の筆による額がある。境内には小堂に聖観音像があり、ほかに岩船地蔵〔享保５年（1720）〕、中村汀女の句碑などがある。(文:戸塚見知楽会)",
           "howtogetthere":""
           },
           { "title":"五霊社",
           "name":"五霊社",
           "position":{ "lat":35.372350, "lng":139.515165},
           "status":"unchecked",
           "image":"res/gorei_kosuzume.jpg",
           "description":"燈明寺開山の円仲省鏡が、村の五穀豊穣と村民の息災延命を祈願して創建したといわれている。祭神は天照大神以下の５神。明治６年（1873）に金井村との村境から、伊勢山と呼ばれていた現在地に移された。現在の社殿は昭和44年（1969）に造営された。境内に皇紀2600年の記念碑のほか多数の石祠などがある。(文:戸塚見知楽会)",
           "howtogetthere":""
           },
           { "title":"五霊社下の古碑",
           "name":"五霊社下の古碑",
           "position":{ "lat":35.372848, "lng":139.516221},
           "status":"unchecked",
           "image":"res/kohi.jpg",
           "description":"五霊社から神社前バス停の方へ下ったところに木食観正（もくじきかんしょう）碑〔文政４年（1821）〕がある。その裏の藪の中には庚申塔２基〔延宝年間（1673〜1681）、享保７年（1722）〕、念仏供養塔〔天和３年（1683）〕が並んでいる。(文:戸塚見知楽会)",
           "howtogetthere":""
           },
           { "title":"五霊神社（栄区田谷町）",
           "name":"五霊神社（栄区田谷町）",
           "position":{ "lat":35.368896, "lng":139.521938},
           "status":"unchecked",
           "image":"res/gorei_sakai.jpg",
           "description":"田谷の鎮守。由緒書によれば、鎌倉権五郎景政の祖とされる桓武平氏の平良文（村岡五郎）が、平安時代に村岡（現藤沢市）に京極御霊社を勧請し、鎌倉時代に北条時頼の命により鎌倉権五郎景政を合祀した。その後13社に分霊され、ここがその一つであるという。社殿の中宮は天保５年（1834）に改築された総欅造りで、拝殿は明治30年（1897）に改築されたものである。(文:戸塚見知楽会)",
           "howtogetthere":""
           },
           { "title":"定泉寺（田谷の洞窟）",
           "name":"定泉寺（田谷の洞窟）",
           "position":{ "lat":35.367852, "lng":139.522118},
           "status":"unchecked",
           "image":"res/jyousenji.jpg",
           "description":"古義真言宗。田谷山と号する。本尊は阿弥陀如来。境内の田谷の洞窟は、真言密教の修行僧が入洞、修行したといわれ、総延長は1km余りに及ぶ。壁面や天井には曼荼羅、十八羅漢、刈萱童心の仏教説話や、西国三十三箇所、坂東三十三箇所、秩父三十四箇所の観音、四国八十八箇所の本尊が彫られており壮観。天文元年（1532）の創建といわれているが、洞窟はそれを遡る時代のものと考えられている。(文:戸塚見知楽会)",
           "howtogetthere":""
           },
           { "title":"玉泉寺",
           "name":"玉泉寺",
           "position":{ "lat":35.378540, "lng":139.520870},
           "status":"unchecked",
           "image":"res/gyokusenji.jpg",
           "description":"臨済宗。宝陀山と号する。本尊は薬師如来・聖観音。鎌倉円覚寺の住持であった誠拙はここに不顧庵忘路亭という茶室を建て隠居したが、文化10年（1813）に京都天龍寺の懇請により上洛した。寺の後の山の爪牙塔には、別れを惜しんだ村人のために誠拙が残した歯と爪を納めている。鎌倉郡三十三観音の29番目の札所になっていた。(文:戸塚見知楽会)",
           "howtogetthere":""
           }

]
}
